[
  { "name": "Jerusalem", "locationType": "city", "latitude": 31.7683, "longitude": 35.2137, "modernName": "Jerusalem, Israel", "description": "Holy city and capital of ancient Israel; site of Solomon's Temple and Jesus' crucifixion and resurrection." },
  { "name": "Bethlehem", "locationType": "city", "latitude": 31.7054, "longitude": 35.2024, "modernName": "Bethlehem, Palestine", "description": "Birthplace of King David and Jesus Christ; known as the City of David." },
  { "name": "Nazareth", "locationType": "city", "latitude": 32.6996, "longitude": 35.3035, "modernName": "Nazareth, Israel", "description": "Childhood home of Jesus; where the angel Gabriel announced the birth of Jesus to Mary." },
  { "name": "Babylon", "locationType": "city", "latitude": 32.5363, "longitude": 44.4209, "modernName": "Hillah, Iraq", "description": "Capital of the Babylonian Empire; where the Jews were exiled under Nebuchadnezzar." },
  { "name": "Rome", "locationType": "city", "latitude": 41.9028, "longitude": 12.4964, "modernName": "Rome, Italy", "description": "Capital of the Roman Empire; where Paul was imprisoned and wrote several epistles." },
  { "name": "Antioch of Syria", "locationType": "city", "latitude": 36.2, "longitude": 36.15, "modernName": "Antakya, Turkey", "description": "Where believers were first called Christians; base for Paul's missionary journeys." },
  { "name": "Corinth", "locationType": "city", "latitude": 37.9063, "longitude": 22.8803, "modernName": "Corinth, Greece", "description": "Major Greek trading city; Paul established a church here and wrote two epistles to the Corinthians." },
  { "name": "Damascus", "locationType": "city", "latitude": 33.5138, "longitude": 36.2765, "modernName": "Damascus, Syria", "description": "One of the world's oldest continuously inhabited cities; where Paul was converted on the road." },
  { "name": "Ephesus", "locationType": "city", "latitude": 37.9392, "longitude": 27.341, "modernName": "Selçuk, Turkey", "description": "Major city of Asia Minor; Paul spent three years here establishing the church." },
  { "name": "Jericho", "locationType": "city", "latitude": 31.8611, "longitude": 35.4608, "modernName": "Jericho, Palestine", "description": "One of the oldest cities in the world; its walls fell before Joshua and the Israelites." },
  { "name": "Samaria", "locationType": "city", "latitude": 32.2747, "longitude": 35.1903, "modernName": "Sebastia, Palestine", "description": "Capital of the northern kingdom of Israel; center of Samaritan worship." },
  { "name": "Hebron", "locationType": "city", "latitude": 31.5326, "longitude": 35.0998, "modernName": "Hebron, Palestine", "description": "One of the oldest cities; burial place of Abraham, Isaac, Jacob, and their wives in the Cave of Machpelah." },
  { "name": "Capernaum", "locationType": "city", "latitude": 32.8803, "longitude": 35.5753, "modernName": "Kfar Nahum, Israel", "description": "Center of Jesus' Galilean ministry; home of Peter; where many miracles were performed." },
  { "name": "Bethany", "locationType": "city", "latitude": 31.7701, "longitude": 35.2555, "modernName": "Al-Eizariya, Palestine", "description": "Home of Mary, Martha, and Lazarus; where Jesus raised Lazarus from the dead." },
  { "name": "Bethsaida", "locationType": "city", "latitude": 32.9078, "longitude": 35.6311, "modernName": "Et-Tell, Israel", "description": "Hometown of Peter, Andrew, and Philip; near where Jesus fed the 5,000." },
  { "name": "Caesarea Maritima", "locationType": "city", "latitude": 32.4998, "longitude": 34.8903, "modernName": "Caesarea, Israel", "description": "Roman administrative capital of Judea; where Peter baptized Cornelius and Paul was imprisoned." },
  { "name": "Caesarea Philippi", "locationType": "city", "latitude": 33.2481, "longitude": 35.6933, "modernName": "Banias, Israel", "description": "Where Peter confessed Jesus as the Christ; located at the foot of Mount Hermon." },
  { "name": "Tyre", "locationType": "city", "latitude": 33.2705, "longitude": 35.2038, "modernName": "Tyre, Lebanon", "description": "Ancient Phoenician port city; famed for its wealth and commerce; visited by Jesus and Paul." },
  { "name": "Sidon", "locationType": "city", "latitude": 33.5575, "longitude": 35.3714, "modernName": "Sidon, Lebanon", "description": "Ancient Phoenician city; Elijah stayed with the widow of Zarephath near here." },
  { "name": "Nineveh", "locationType": "city", "latitude": 36.3598, "longitude": 43.1528, "modernName": "Mosul, Iraq", "description": "Capital of the Assyrian Empire; where Jonah was sent to preach repentance." },
  { "name": "Ur of the Chaldees", "locationType": "city", "latitude": 30.9627, "longitude": 46.1031, "modernName": "Tell el-Muqayyar, Iraq", "description": "Birthplace of Abraham; a major Sumerian city in ancient Mesopotamia." },
  { "name": "Haran", "locationType": "city", "latitude": 36.8644, "longitude": 39.0303, "modernName": "Harran, Turkey", "description": "Where Abraham's family settled after leaving Ur; where Jacob fled from Esau." },
  { "name": "Shechem", "locationType": "city", "latitude": 32.2133, "longitude": 35.2856, "modernName": "Nablus, Palestine", "description": "Where Abraham first received God's promise of the land; Jacob purchased land here." },
  { "name": "Beersheba", "locationType": "city", "latitude": 31.2518, "longitude": 34.7913, "modernName": "Be'er Sheva, Israel", "description": "Southern boundary of Israel ('from Dan to Beersheba'); where Abraham made a covenant with Abimelech." },
  { "name": "Dan", "locationType": "city", "latitude": 33.2487, "longitude": 35.6523, "modernName": "Tel Dan, Israel", "description": "Northern boundary of ancient Israel; where Jeroboam set up a golden calf." },
  { "name": "Bethel", "locationType": "city", "latitude": 31.9333, "longitude": 35.2333, "modernName": "Beitin, Palestine", "description": "Where Jacob dreamed of a ladder reaching heaven; a major worship site in ancient Israel." },
  { "name": "Shiloh", "locationType": "city", "latitude": 32.0553, "longitude": 35.2892, "modernName": "Khirbet Seilun, Palestine", "description": "Location of the Tabernacle for over 300 years before the Temple was built in Jerusalem." },
  { "name": "Megiddo", "locationType": "city", "latitude": 32.5847, "longitude": 35.1847, "modernName": "Tel Megiddo, Israel", "description": "Strategic fortress city; associated with Armageddon in the book of Revelation." },
  { "name": "Lachish", "locationType": "city", "latitude": 31.5647, "longitude": 34.8489, "modernName": "Tel Lachish, Israel", "description": "Second most important city of Judah; besieged by Sennacherib of Assyria." },
  { "name": "Gaza", "locationType": "city", "latitude": 31.5, "longitude": 34.4667, "modernName": "Gaza City, Palestine", "description": "One of the five Philistine cities; where Samson was imprisoned and died." },
  { "name": "Ashdod", "locationType": "city", "latitude": 31.795, "longitude": 34.6503, "modernName": "Ashdod, Israel", "description": "Philistine city where the Ark of the Covenant was taken and the idol Dagon fell." },
  { "name": "Joppa", "locationType": "city", "latitude": 32.0522, "longitude": 34.7517, "modernName": "Jaffa (Yafo), Israel", "description": "Ancient port city; where Peter had the vision of the sheet and raised Tabitha from the dead." },
  { "name": "Thessalonica", "locationType": "city", "latitude": 40.6401, "longitude": 22.9444, "modernName": "Thessaloniki, Greece", "description": "Major city of Macedonia; Paul founded a church here and wrote two epistles to the Thessalonians." },
  { "name": "Philippi", "locationType": "city", "latitude": 41.0114, "longitude": 24.2872, "modernName": "Filippoi, Greece", "description": "First European city where Paul preached; where Lydia was converted and Paul was imprisoned." },
  { "name": "Athens", "locationType": "city", "latitude": 37.9838, "longitude": 23.7275, "modernName": "Athens, Greece", "description": "Center of Greek philosophy; where Paul preached at the Areopagus about the unknown God." },
  { "name": "Crete", "locationType": "island", "latitude": 35.2401, "longitude": 24.8093, "modernName": "Crete, Greece", "description": "Mediterranean island where Titus was left to organize churches; Paul's ship passed during his voyage to Rome." },
  { "name": "Malta", "locationType": "island", "latitude": 35.9375, "longitude": 14.3754, "modernName": "Malta", "description": "Island where Paul was shipwrecked on his voyage to Rome; he healed many there." },
  { "name": "Cyprus", "locationType": "island", "latitude": 35.1264, "longitude": 33.4299, "modernName": "Cyprus", "description": "Home island of Barnabas; first stop on Paul's first missionary journey." },
  { "name": "Patmos", "locationType": "island", "latitude": 37.3111, "longitude": 26.5458, "modernName": "Patmos, Greece", "description": "Island of exile where the apostle John received the Revelation." },
  { "name": "Pergamum", "locationType": "city", "latitude": 39.1217, "longitude": 27.1839, "modernName": "Bergama, Turkey", "description": "One of the seven churches of Revelation; described as where Satan's throne is." },
  { "name": "Smyrna", "locationType": "city", "latitude": 38.4192, "longitude": 27.1287, "modernName": "Izmir, Turkey", "description": "One of the seven churches of Revelation; praised for faithfulness under persecution." },
  { "name": "Thyatira", "locationType": "city", "latitude": 38.92, "longitude": 27.84, "modernName": "Akhisar, Turkey", "description": "One of the seven churches of Revelation; home of Lydia, seller of purple cloth." },
  { "name": "Sardis", "locationType": "city", "latitude": 38.4883, "longitude": 28.04, "modernName": "Sart, Turkey", "description": "One of the seven churches of Revelation; warned to wake up and strengthen what remains." },
  { "name": "Philadelphia", "locationType": "city", "latitude": 38.3531, "longitude": 28.5219, "modernName": "Alaşehir, Turkey", "description": "One of the seven churches of Revelation; commended for keeping God's word." },
  { "name": "Laodicea", "locationType": "city", "latitude": 37.8361, "longitude": 29.1075, "modernName": "Denizli, Turkey", "description": "One of the seven churches of Revelation; rebuked for being lukewarm." },
  { "name": "Colossae", "locationType": "city", "latitude": 37.7872, "longitude": 29.2608, "modernName": "Near Honaz, Turkey", "description": "City in Phrygia; Paul wrote the Epistle to the Colossians to the church here." },
  { "name": "Galatia", "locationType": "region", "latitude": 39.6333, "longitude": 32.15, "modernName": "Central Turkey", "description": "Region in central Asia Minor; Paul wrote the Epistle to the Galatians to churches here." },
  { "name": "Derbe", "locationType": "city", "latitude": 37.3611, "longitude": 33.3264, "modernName": "Kerti Höyük, Turkey", "description": "City in Lycaonia visited by Paul on his first and second missionary journeys." },
  { "name": "Lystra", "locationType": "city", "latitude": 37.5667, "longitude": 32.3333, "modernName": "Hatunsaray, Turkey", "description": "City where Paul healed a crippled man and was mistaken for Hermes; Timothy's hometown." },
  { "name": "Iconium", "locationType": "city", "latitude": 37.8714, "longitude": 32.4846, "modernName": "Konya, Turkey", "description": "City in Asia Minor visited by Paul; many Jews and Greeks believed." },
  { "name": "Antioch of Pisidia", "locationType": "city", "latitude": 38.3019, "longitude": 31.1947, "modernName": "Yalvaç, Turkey", "description": "City where Paul preached in the synagogue on his first missionary journey." },
  { "name": "Troas", "locationType": "city", "latitude": 39.7517, "longitude": 26.1592, "modernName": "Dalyan, Turkey", "description": "Port city where Paul had the vision of a man from Macedonia calling for help." },
  { "name": "Miletus", "locationType": "city", "latitude": 37.5306, "longitude": 27.2778, "modernName": "Near Balat, Turkey", "description": "Port city where Paul gave his farewell address to the Ephesian elders." },
  { "name": "Puteoli", "locationType": "city", "latitude": 40.8264, "longitude": 14.1214, "modernName": "Pozzuoli, Italy", "description": "Port near Naples where Paul landed on his voyage to Rome." },
  { "name": "Syracuse", "locationType": "city", "latitude": 37.0755, "longitude": 15.2866, "modernName": "Syracuse, Sicily, Italy", "description": "City in Sicily where Paul's ship stopped for three days en route to Rome." },
  { "name": "Nain", "locationType": "city", "latitude": 32.6306, "longitude": 35.3472, "modernName": "Nein, Israel", "description": "Village where Jesus raised a widow's son from the dead." },
  { "name": "Cana", "locationType": "city", "latitude": 32.7472, "longitude": 35.3411, "modernName": "Kafr Kanna, Israel", "description": "Village where Jesus performed his first miracle, turning water into wine." },
  { "name": "Emmaus", "locationType": "city", "latitude": 31.8389, "longitude": 34.9892, "modernName": "Emmaus Nicopolis, Israel", "description": "Village where the risen Jesus appeared to two disciples on the road." },
  { "name": "Sychar", "locationType": "city", "latitude": 32.2139, "longitude": 35.2858, "modernName": "Askar, Palestine", "description": "Samaritan town near Jacob's well where Jesus spoke with the woman at the well." },
  { "name": "Dothan", "locationType": "city", "latitude": 32.4039, "longitude": 35.2342, "modernName": "Tell Dothan, Palestine", "description": "Where Joseph's brothers sold him into slavery; where Elisha saw the heavenly army." },
  { "name": "Ai", "locationType": "city", "latitude": 31.9167, "longitude": 35.25, "modernName": "Et-Tell, Palestine", "description": "City near Bethel; Israel's initial defeat here due to Achan's sin." },
  { "name": "Gilgal", "locationType": "city", "latitude": 31.8903, "longitude": 35.4375, "modernName": "Near Jericho, Palestine", "description": "First campsite of Israel after crossing the Jordan; twelve memorial stones placed here." },
  { "name": "Mizpah", "locationType": "city", "latitude": 31.8522, "longitude": 35.1953, "modernName": "Tell en-Nasbeh, Palestine", "description": "Meeting place for Israel; where Samuel judged Israel and Saul was chosen as king." },
  { "name": "Gibeon", "locationType": "city", "latitude": 31.85, "longitude": 35.185, "modernName": "Al-Jib, Palestine", "description": "Where the sun stood still during Joshua's battle; Solomon received wisdom in a dream here." },
  { "name": "Gezer", "locationType": "city", "latitude": 31.8744, "longitude": 34.9214, "modernName": "Tel Gezer, Israel", "description": "Strategic Canaanite city; given to Solomon by Pharaoh as a wedding gift." },
  { "name": "Hazor", "locationType": "city", "latitude": 33.0172, "longitude": 35.5686, "modernName": "Tel Hazor, Israel", "description": "Largest Canaanite city; burned by Joshua; later fortified by Solomon." },
  { "name": "Susa", "locationType": "city", "latitude": 32.1903, "longitude": 48.2436, "modernName": "Shush, Iran", "description": "Capital of ancient Persia; setting of the book of Esther and Daniel's visions." },
  { "name": "Persepolis", "locationType": "city", "latitude": 29.9353, "longitude": 52.8914, "modernName": "Persepolis, Iran", "description": "Ceremonial capital of the Achaemenid Persian Empire; reflects the power of the empire in Daniel's time." },
  { "name": "Alexandria", "locationType": "city", "latitude": 31.2001, "longitude": 29.9187, "modernName": "Alexandria, Egypt", "description": "Egyptian city with a large Jewish community; home of Apollos; where the Septuagint was translated." },
  { "name": "Memphis", "locationType": "city", "latitude": 29.8444, "longitude": 31.2553, "modernName": "Mit Rahina, Egypt", "description": "Ancient capital of Egypt; mentioned by the prophets Isaiah, Jeremiah, and Ezekiel." },
  { "name": "Thebes", "locationType": "city", "latitude": 25.7188, "longitude": 32.6573, "modernName": "Luxor, Egypt", "description": "Ancient Egyptian city called No-Amon in the Bible; mentioned in Nahum's prophecy." },
  { "name": "Petra", "locationType": "city", "latitude": 30.3285, "longitude": 35.4444, "modernName": "Petra, Jordan", "description": "Rock-hewn Edomite/Nabataean city; possibly the Sela mentioned in Isaiah and Obadiah." },
  { "name": "Tadmor", "locationType": "city", "latitude": 34.5667, "longitude": 38.2833, "modernName": "Palmyra, Syria", "description": "Desert city built by Solomon as a trading post in the wilderness." },

  { "name": "Mount Sinai", "locationType": "mountain", "latitude": 28.5394, "longitude": 33.9753, "modernName": "Jebel Musa, Egypt", "description": "Where God gave Moses the Ten Commandments and the Law; also known as Mount Horeb." },
  { "name": "Mount Ararat", "locationType": "mountain", "latitude": 39.7019, "longitude": 44.2983, "modernName": "Ağrı Dağı, Turkey", "description": "Where Noah's Ark came to rest after the Great Flood." },
  { "name": "Mount Carmel", "locationType": "mountain", "latitude": 32.7417, "longitude": 35.0417, "modernName": "Mount Carmel, Israel", "description": "Where Elijah challenged the prophets of Baal and called down fire from heaven." },
  { "name": "Mount of Olives", "locationType": "mountain", "latitude": 31.7781, "longitude": 35.2469, "modernName": "Mount of Olives, Jerusalem", "description": "Where Jesus taught, wept over Jerusalem, and ascended to heaven; overlooks the Temple Mount." },
  { "name": "Mount Zion", "locationType": "mountain", "latitude": 31.7719, "longitude": 35.2286, "modernName": "Mount Zion, Jerusalem", "description": "Hill in Jerusalem symbolizing God's dwelling place; site of David's City and the Upper Room." },
  { "name": "Mount Moriah", "locationType": "mountain", "latitude": 31.7781, "longitude": 35.2353, "modernName": "Temple Mount, Jerusalem", "description": "Where Abraham was tested to sacrifice Isaac; later the site of Solomon's Temple." },
  { "name": "Mount Hermon", "locationType": "mountain", "latitude": 33.4167, "longitude": 35.8567, "modernName": "Mount Hermon, Israel/Lebanon/Syria", "description": "Highest peak in the region; possible site of Jesus' Transfiguration." },
  { "name": "Mount Nebo", "locationType": "mountain", "latitude": 31.7672, "longitude": 35.7253, "modernName": "Mount Nebo, Jordan", "description": "Where Moses viewed the Promised Land before his death." },
  { "name": "Mount Tabor", "locationType": "mountain", "latitude": 32.6872, "longitude": 35.3917, "modernName": "Mount Tabor, Israel", "description": "Traditional site of Jesus' Transfiguration; where Deborah and Barak gathered against Sisera." },
  { "name": "Mount Ebal", "locationType": "mountain", "latitude": 32.2333, "longitude": 35.2667, "modernName": "Mount Ebal, Palestine", "description": "Mountain of curses; where Joshua built an altar and read the Law to all Israel." },
  { "name": "Mount Gerizim", "locationType": "mountain", "latitude": 32.1994, "longitude": 35.2728, "modernName": "Mount Gerizim, Palestine", "description": "Mountain of blessings; sacred to the Samaritans as their place of worship." },
  { "name": "Mount Gilboa", "locationType": "mountain", "latitude": 32.4667, "longitude": 35.4167, "modernName": "Mount Gilboa, Israel", "description": "Where King Saul and his sons died in battle against the Philistines." },
  { "name": "Mount Pisgah", "locationType": "mountain", "latitude": 31.7686, "longitude": 35.7306, "modernName": "Near Mount Nebo, Jordan", "description": "Peak from which Moses viewed the Promised Land; overlooks the Jordan Valley." },
  { "name": "Mount Hor", "locationType": "mountain", "latitude": 30.3203, "longitude": 35.4178, "modernName": "Jebel Harun, Jordan", "description": "Where Aaron died and was buried; located near Petra in Edom." },

  { "name": "Jordan River", "locationType": "river", "latitude": 31.7597, "longitude": 35.5264, "modernName": "Jordan River", "description": "Most significant river in the Bible; where Israel crossed into Canaan and where Jesus was baptized by John." },
  { "name": "Nile River", "locationType": "river", "latitude": 30.0444, "longitude": 31.2357, "modernName": "Nile River, Egypt", "description": "Greatest river of Egypt; turned to blood during the plagues; where baby Moses was found." },
  { "name": "Euphrates River", "locationType": "river", "latitude": 31.0, "longitude": 47.4333, "modernName": "Euphrates River", "description": "One of four rivers of Eden; eastern boundary of the Promised Land; mentioned in Revelation." },
  { "name": "Tigris River", "locationType": "river", "latitude": 33.3333, "longitude": 44.3833, "modernName": "Tigris River", "description": "One of four rivers of Eden; Daniel received a vision on its banks." },
  { "name": "Jabbok River", "locationType": "river", "latitude": 32.185, "longitude": 35.6667, "modernName": "Zarqa River, Jordan", "description": "Where Jacob wrestled with God and was renamed Israel." },
  { "name": "Kishon River", "locationType": "river", "latitude": 32.7833, "longitude": 35.05, "modernName": "Kishon River, Israel", "description": "Where the army of Sisera was swept away; where Elijah slew the prophets of Baal." },
  { "name": "Arnon River", "locationType": "river", "latitude": 31.4667, "longitude": 35.5833, "modernName": "Wadi Mujib, Jordan", "description": "Border between Moab and the Amorites; Israel crossed it during the conquest." },

  { "name": "Sea of Galilee", "locationType": "sea", "latitude": 32.8231, "longitude": 35.5831, "modernName": "Lake Tiberias (Kinneret), Israel", "description": "Freshwater lake central to Jesus' ministry; where Jesus walked on water, calmed the storm, and called his first disciples." },
  { "name": "Red Sea", "locationType": "sea", "latitude": 27.9833, "longitude": 34.2833, "modernName": "Red Sea / Gulf of Suez", "description": "Sea that God parted for Israel to cross during the Exodus from Egypt." },
  { "name": "Dead Sea", "locationType": "sea", "latitude": 31.5, "longitude": 35.5, "modernName": "Dead Sea", "description": "Lowest point on earth; also called the Salt Sea; near Sodom and Gomorrah." },
  { "name": "Mediterranean Sea", "locationType": "sea", "latitude": 34.5, "longitude": 29.0, "modernName": "Mediterranean Sea", "description": "Called the Great Sea in the Bible; western boundary of the Promised Land; route for Paul's missionary journeys." },

  { "name": "Canaan", "locationType": "region", "latitude": 31.7, "longitude": 35.2, "modernName": "Israel/Palestine/Lebanon", "description": "The Promised Land given to Abraham and his descendants; land flowing with milk and honey." },
  { "name": "Judah", "locationType": "region", "latitude": 31.55, "longitude": 35.1, "modernName": "Southern Israel/Palestine", "description": "Territory of the tribe of Judah; later the southern kingdom after the monarchy split." },
  { "name": "Samaria Region", "locationType": "region", "latitude": 32.28, "longitude": 35.19, "modernName": "Central Palestine", "description": "Region between Galilee and Judea; home of the Samaritans; Jesus traveled through and ministered here." },
  { "name": "Galilee", "locationType": "region", "latitude": 32.75, "longitude": 35.35, "modernName": "Northern Israel", "description": "Northern region where Jesus grew up and conducted much of his ministry." },
  { "name": "Mesopotamia", "locationType": "region", "latitude": 33.0, "longitude": 44.0, "modernName": "Iraq", "description": "Land between the Tigris and Euphrates rivers; homeland of Abraham; cradle of civilization." },
  { "name": "Goshen", "locationType": "region", "latitude": 30.7833, "longitude": 31.9, "modernName": "Eastern Nile Delta, Egypt", "description": "Region in Egypt where the Israelites settled during Joseph's time and multiplied greatly." },
  { "name": "Edom", "locationType": "region", "latitude": 30.55, "longitude": 35.4, "modernName": "Southern Jordan", "description": "Territory of Esau's descendants; south of the Dead Sea; rival of Israel." },
  { "name": "Moab", "locationType": "region", "latitude": 31.25, "longitude": 35.75, "modernName": "Central Jordan", "description": "Region east of the Dead Sea; homeland of Ruth; where Moses died." },
  { "name": "Ammon", "locationType": "region", "latitude": 31.95, "longitude": 35.93, "modernName": "Amman, Jordan", "description": "Territory of Lot's descendants east of the Jordan; capital was Rabbah (modern Amman)." },
  { "name": "Philistia", "locationType": "region", "latitude": 31.6, "longitude": 34.55, "modernName": "Gaza Strip, Israel", "description": "Coastal region of the five Philistine cities; home of Goliath and enemies of Israel." },
  { "name": "Bashan", "locationType": "region", "latitude": 32.8, "longitude": 35.95, "modernName": "Golan Heights, Syria", "description": "Fertile region east of the Sea of Galilee; famed for its oaks and cattle; ruled by King Og." },
  { "name": "Gilead", "locationType": "region", "latitude": 32.3, "longitude": 35.85, "modernName": "Northwestern Jordan", "description": "Mountainous region east of the Jordan; associated with the balm of Gilead; Elijah's homeland." },
  { "name": "Negev", "locationType": "desert", "latitude": 30.8, "longitude": 34.8, "modernName": "Negev Desert, Israel", "description": "Southern desert of Israel; where Abraham, Isaac, and Jacob traveled and lived." },
  { "name": "Wilderness of Sinai", "locationType": "desert", "latitude": 29.0, "longitude": 34.0, "modernName": "Sinai Peninsula, Egypt", "description": "Desert where Israel wandered for 40 years after the Exodus from Egypt." },
  { "name": "Wilderness of Judea", "locationType": "desert", "latitude": 31.6, "longitude": 35.35, "modernName": "Judean Desert, Israel", "description": "Barren region between Jerusalem and the Dead Sea; where David hid and Jesus was tempted." },
  { "name": "Wilderness of Paran", "locationType": "desert", "latitude": 29.5, "longitude": 34.6, "modernName": "Northeastern Sinai, Egypt", "description": "Desert where the twelve spies were sent from; where Hagar wandered with Ishmael." },

  { "name": "Valley of Jezreel", "locationType": "valley", "latitude": 32.56, "longitude": 35.32, "modernName": "Jezreel Valley, Israel", "description": "Large fertile valley in northern Israel; site of many battles including Gideon's victory over the Midianites." },
  { "name": "Valley of Elah", "locationType": "valley", "latitude": 31.6917, "longitude": 34.9583, "modernName": "Emek HaElah, Israel", "description": "Where David fought and killed Goliath the Philistine giant." },
  { "name": "Valley of Hinnom", "locationType": "valley", "latitude": 31.768, "longitude": 35.23, "modernName": "Hinnom Valley, Jerusalem", "description": "Valley south of Jerusalem associated with child sacrifice to Molech; later called Gehenna." },
  { "name": "Kidron Valley", "locationType": "valley", "latitude": 31.775, "longitude": 35.2375, "modernName": "Kidron Valley, Jerusalem", "description": "Valley between Jerusalem and the Mount of Olives; crossed by David fleeing Absalom and by Jesus going to Gethsemane." },
  { "name": "Valley of Megiddo", "locationType": "valley", "latitude": 32.585, "longitude": 35.185, "modernName": "Jezreel Valley, Israel", "description": "Strategic valley associated with Armageddon in Revelation; site of King Josiah's death." },
  { "name": "Valley of Achor", "locationType": "valley", "latitude": 31.85, "longitude": 35.4, "modernName": "Near Jericho", "description": "Where Achan was punished after the defeat at Ai; prophesied to become a door of hope." },

  { "name": "Gethsemane", "locationType": "city", "latitude": 31.7792, "longitude": 35.2403, "modernName": "Garden of Gethsemane, Jerusalem", "description": "Garden at the foot of the Mount of Olives where Jesus prayed in agony before his arrest." },
  { "name": "Golgotha", "locationType": "city", "latitude": 31.7786, "longitude": 35.2297, "modernName": "Church of the Holy Sepulchre, Jerusalem", "description": "The Place of the Skull where Jesus was crucified." },
  { "name": "Pool of Bethesda", "locationType": "city", "latitude": 31.7817, "longitude": 35.2356, "modernName": "Bethesda Pool, Jerusalem", "description": "Pool in Jerusalem where Jesus healed a man who had been lame for 38 years." },
  { "name": "Tarsus", "locationType": "city", "latitude": 36.9194, "longitude": 34.8903, "modernName": "Tarsus, Turkey", "description": "Birthplace of the Apostle Paul; a major city of Cilicia." },
  { "name": "Berea", "locationType": "city", "latitude": 40.5256, "longitude": 22.3508, "modernName": "Veria, Greece", "description": "City in Macedonia whose Jews were praised for examining the Scriptures daily." },
  { "name": "Paphos", "locationType": "city", "latitude": 34.7556, "longitude": 32.4031, "modernName": "Paphos, Cyprus", "description": "City in Cyprus where Paul blinded the sorcerer Elymas before the proconsul Sergius Paulus." },
  { "name": "Salamis", "locationType": "city", "latitude": 35.1847, "longitude": 33.9022, "modernName": "Near Famagusta, Cyprus", "description": "City in eastern Cyprus where Paul and Barnabas first preached on the first missionary journey." },
  { "name": "Perga", "locationType": "city", "latitude": 36.9614, "longitude": 30.8542, "modernName": "Perge, Turkey", "description": "City in Pamphylia where John Mark left Paul and Barnabas on the first missionary journey." },
  { "name": "Attalia", "locationType": "city", "latitude": 36.8842, "longitude": 30.7056, "modernName": "Antalya, Turkey", "description": "Port city from which Paul and Barnabas sailed back to Antioch after the first missionary journey." },
  { "name": "Assos", "locationType": "city", "latitude": 39.4903, "longitude": 26.3347, "modernName": "Behramkale, Turkey", "description": "Coastal city where Paul rejoined his companions during his third missionary journey." },
  { "name": "Ptolemais", "locationType": "city", "latitude": 32.9261, "longitude": 35.0728, "modernName": "Acre (Akko), Israel", "description": "Coastal city where Paul stopped for a day with believers on his return to Jerusalem." },
  { "name": "Siloam", "locationType": "city", "latitude": 31.7714, "longitude": 35.2358, "modernName": "Silwan, Jerusalem", "description": "Pool in Jerusalem where Jesus sent the blind man to wash and receive his sight." }
]
